[
  {
    "id": "bm-design",
    "name": "BM Design",
    "category": "Design / Försäljning / Evenemang",
    "description": "Design- och evenemangsverksamhet.",
    "phone": "0705-451110",
    "email": "info@bmdesign.se",
    "website": null,
    "address": null,
    "locality": "Svängsta",
    "lat": 56.2619808,
    "lng": 14.7747988
  },
  {
    "id": "hitex",
    "name": "Hitex",
    "category": "Industri / Tillverkning",
    "description": "Industritillverkning av tuftrobotar och mattlösningar.",
    "phone": "0708-323616",
    "email": "lasse@hitex.se",
    "website": "https://www.hitex.se",
    "address": "Nissavägen 5, 376 36 Svängsta",
    "locality": "Svängsta",
    "lat": 56.2527356,
    "lng": 14.779862
  },
  {
    "id": "floating-karlshamn",
    "name": "Floating Karlshamn",
    "category": "Spa / Hälsa",
    "description": "Floating- och spa-verksamhet.",
    "phone": "070-8166528",
    "email": "info@floatingkarlshamn.se",
    "website": "https://www.floatingkarlshamn.se",
    "address": null,
    "locality": "Karlshamn",
    "lat": 56.1701723,
    "lng": 14.8631279
  },
  {
    "id": "jaktia-svangsta",
    "name": "Jaktia Svängsta",
    "category": "Handel / Jakt & Fritid",
    "description": "Butik för jakt-, fiske- och friluftsutrustning.",
    "phone": "0454-322000",
    "email": "svangsta@jaktia.se",
    "website": "https://www.jaktia.se/butiker/svangsta",
    "address": "Brovägen 2, 376 37 Svängsta",
    "locality": "Svängsta",
    "lat": 56.2601031,
    "lng": 14.7719213
  },
  {
    "id": "coop-svangsta",
    "name": "Coop Svängsta",
    "category": "Dagligvaror / Service",
    "description": "Lokal livsmedelsbutik och infopunkt.",
    "phone": "0454-322012",
    "email": null,
    "website": "https://www.coop.se",
    "address": "Holländarevägen 70, 376 37 Svängsta",
    "locality": "Svängsta",
    "lat": 56.2628004,
    "lng": 14.7712396
  },
  {
    "id": "gulf-svangsta",
    "name": "Gulf Svängsta",
    "category": "Bensinstation",
    "description": "Bensinstation med butik och service.",
    "phone": "0454-322183",
    "email": null,
    "website": "https://www.gulfsverige.com",
    "address": "Holländarevägen 12, 376 37 Svängsta",
    "locality": "Svängsta",
    "lat": 56.252437,
    "lng": 14.7818633
  },
  {
    "id": "svangsta-komponent-verktyg",
    "name": "Svängsta Komponent & Verktygs AB",
    "category": "Industri / Verkstad",
    "description": "Mekanisk verkstad och legotillverkning.",
    "phone": "0454-305830",
    "email": "info@svangstakomponent.se",
    "website": "https://svangstakomponent.se",
    "address": "Öjavadsvägen 2, 376 36 Svängsta",
    "locality": "Svängsta",
    "lat": 56.2622467,
    "lng": 14.7684038
  },
  {
    "id": "hj-svangsta-skogforvaltning",
    "name": "HJ Svängsta Skogsförvaltning",
    "category": "Skogsförvaltning",
    "description": "Skogsförvaltning och relaterade tjänster.",
    "phone": "073-8402854",
    "email": null,
    "website": null,
    "address": null,
    "locality": "Svängsta",
    "lat": 56.264,
    "lng": 14.772
  },
  {
    "id": "lr-service-el",
    "name": "LR Service El AB",
    "category": "Elinstallationer",
    "description": "Elservice och installationer.",
    "phone": "073-3669958",
    "email": null,
    "website": null,
    "address": null,
    "locality": "Svängsta",
    "lat": 56.263,
    "lng": 14.768
  },
  {
    "id": "perssons-elektriska",
    "name": "Perssons Elektriska",
    "category": "Elinstallationer",
    "description": "Lokal elektrikerfirma.",
    "phone": "0454-322811",
    "email": null,
    "website": null,
    "address": "Öjavadsvägen 2, 376 36 Svängsta",
    "locality": "Svängsta",
    "lat": 56.2622467,
    "lng": 14.7684038
  },
  {
    "id": "vvsarn-i-blekinge",
    "name": "VVSarn i Blekinge",
    "category": "VVS",
    "description": "VVS-installationer och service.",
    "phone": "0454-41066",
    "email": "simon@vvsarniblekinge.se",
    "website": "http://vvsarniblekinge.se",
    "address": "Norra Holländarevägen 775, 376 92 Svängsta",
    "locality": "Svängsta",
    "lat": 56.282,
    "lng": 14.765
  },
  {
    "id": "eaab-vvs",
    "name": "EAAB VVS",
    "category": "VVS",
    "description": "Lokala VVS-tjänster.",
    "phone": "070-9747647",
    "email": "eaabvvs@hotmail.com",
    "website": null,
    "address": "Gyngamålavägen",
    "locality": null,
    "lat": 56.3459564,
    "lng": 14.8194312
  },
  {
    "id": "vvs-i-svangsta",
    "name": "VVS i Svängsta AB",
    "category": "VVS",
    "description": "Tidigare Svängstabaserat VVS-företag, numera i Mörrum.",
    "phone": "0454-323090",
    "email": null,
    "website": null,
    "address": "Mörrum",
    "locality": "Mörrum",
    "lat": 56.1928572,
    "lng": 14.7532545
  },
  {
    "id": "maleriet-ab",
    "name": "Måleriet AB",
    "category": "Måleri",
    "description": "Måleriarbeten för privatpersoner och företag.",
    "phone": "0735-137125",
    "email": "maleriett@hotmail.com",
    "website": null,
    "address": null,
    "locality": "Svängsta",
    "lat": 56.259,
    "lng": 14.775
  },
  {
    "id": "mattias-mobilsag",
    "name": "Mattias Mobilsåg",
    "category": "Snickeri / Skog",
    "description": "Mobil sågning och träbearbetning.",
    "phone": "076-1044268",
    "email": "info@mattiasmobilsag.se",
    "website": "https://mattiasmobilsag.se",
    "address": "Promenadstigen 60, 376 36 Svängsta",
    "locality": "Svängsta",
    "lat": 56.2678802,
    "lng": 14.7625822
  },
  {
    "id": "lonnemala-snickeri",
    "name": "Lönnemåla Snickeri",
    "category": "Snickeri",
    "description": "Snickeriarbeten och byggtjänster.",
    "phone": "070-9275996",
    "email": null,
    "website": null,
    "address": "Lönnemåla",
    "locality": "Svängsta",
    "lat": 56.275,
    "lng": 14.755
  },
  {
    "id": "omnia-bygg",
    "name": "Omnia Bygg AB",
    "category": "Bygg",
    "description": "Bygg- och renoveringstjänster.",
    "phone": "070-3815129",
    "email": null,
    "website": null,
    "address": null,
    "locality": "Svängsta",
    "lat": 56.258,
    "lng": 14.778
  },
  {
    "id": "hemsjo-bygg",
    "name": "Hemsjö Bygg AB",
    "category": "Bygg",
    "description": "Lokalt byggföretag verksamt i Hemsjö med omnejd.",
    "phone": "073-3902231",
    "email": null,
    "website": null,
    "address": "Hemsjö",
    "locality": "Hemsjö",
    "lat": 56.3264148,
    "lng": 14.7008928
  },
  {
    "id": "jagenmark-cecilia",
    "name": "Jägenmark Cecilia",
    "category": "Fotograf",
    "description": "Fotografverksamhet baserad i Halda.",
    "phone": null,
    "email": "info.jagenmark@gmail.com",
    "website": null,
    "address": "Halda",
    "locality": "Svängsta",
    "lat": 56.2613995,
    "lng": 14.7679592
  },
  {
    "id": "grej-creative",
    "name": "Anton Freij – Grej Creative",
    "category": "Film / Media",
    "description": "Film- och kreativa produktioner.",
    "phone": null,
    "email": null,
    "website": "http://www.frejcreative.com",
    "address": "Halda",
    "locality": "Svängsta",
    "lat": 56.2613995,
    "lng": 14.7679592
  },
  {
    "id": "loppinell",
    "name": "Loppinell",
    "category": "Handel / Second hand",
    "description": "Loppis- och försäljningsverksamhet.",
    "phone": "0738-318081",
    "email": "stina.friberg@loppinell.se",
    "website": null,
    "address": null,
    "locality": "Svängsta",
    "lat": 56.2619808,
    "lng": 14.7747988
  },
  {
    "id": "astensmala-gard",
    "name": "Åstensmåla Restaurang & Boende",
    "category": "Gårdskrog / Mat & Boende",
    "description": "Gårdsmat, vinupplevelser och boende i lantlig miljö.",
    "phone": null,
    "email": "info@astensmalagard.se",
    "website": "https://www.astensmalagard.se",
    "address": "Svängstavägen 1255-15, 376 37 Svängsta",
    "locality": "Svängsta",
    "lat": 56.2902971,
    "lng": 14.7271276
  },
  {
    "id": "svangsta-kvarnen",
    "name": "Svängsta Kvarnen",
    "category": "Restaurang / Lunch",
    "description": "Lunchrestaurang och catering.",
    "phone": "073-8908377",
    "email": "svangstakvarnen23@hotmail.com",
    "website": "https://svangsta.restaurangkvarnen.se",
    "address": "Öjavadshuset 2, 376 36 Svängsta",
    "locality": "Svängsta",
    "lat": 56.2709,
    "lng": 14.754
  },
  {
    "id": "millis-pizzeria",
    "name": "Millis Pizzeria",
    "category": "Pizzeria / Take-away",
    "description": "Pizzeria och grill i centrala Svängsta.",
    "phone": "04554-323116",
    "email": null,
    "website": null,
    "address": "Holländarevägen 31, 376 37 Svängsta",
    "locality": "Svängsta",
    "lat": 56.260448,
    "lng": 14.7721496
  },
  {
    "id": "hallandsboda-bb",
    "name": "Hallandsboda Bed & Breakfast",
    "category": "Bed & Breakfast",
    "description": "Gårds-B&B och stuguthyrning vid Mörrumsån.",
    "phone": "070-3068705",
    "email": "info@hallandsboda.se",
    "website": "https://hallandsboda.se",
    "address": "Hallandsboda, Karlshamns kommun",
    "locality": "Hallandsboda",
    "lat": 56.3008651,
    "lng": 14.7333133
  },
  {
    "id": "bokemala-uthyrning",
    "name": "Bökemåla – Uthyrning",
    "category": "Privat boende",
    "description": "Privat uthyrning av boende i Bökemåla.",
    "phone": "070-1423139",
    "email": "monica.nobach@gmail.com",
    "website": null,
    "address": "Bökemåla",
    "locality": null,
    "lat": 56.2683205,
    "lng": 14.7921855
  },
  {
    "id": "ovre-amneboda-uthyrning",
    "name": "Övre Ämneboda – Uthyrning",
    "category": "Privat boende",
    "description": "Privat uthyrningsalternativ i Övre Ämneboda.",
    "phone": "070-5210173",
    "email": null,
    "website": null,
    "address": "Övre Ämneboda",
    "locality": null,
    "lat": 56.298927,
    "lng": 14.8063681
  },
  {
    "id": "karlshamnsbostader",
    "name": "Karlshamnsbostäder",
    "category": "Hyresvärd",
    "description": "Kommunalt bostadsbolag med bostäder även i Svängsta.",
    "phone": null,
    "email": "info@karlshamnsfastigheter.se",
    "website": "https://www.karlshamnsbostader.se",
    "address": "Pirgatan 6, 374 35 Karlshamn",
    "locality": "Karlshamn",
    "lat": 56.1641949,
    "lng": 14.8660028
  }
]
